[{"name": "\u6b63\u7fa9\u967d", "address": "\u53f0\u5317\u5e02\u5927\u5b89\u5340\u5fe0\u5b5d\u6771\u8def\u4e09\u6bb5218\u865fB1", "lat": 25.0413931, "lng": 121.5402041, "cityID": "106"}, {"name": "\u4ec1\u611b\u5e97", "address": "\u53f0\u5317\u5e02\u5927\u5b89\u5340\u4ec1\u611b\u8def\u56db\u6bb550-99,50-100\u865fB1", "lat": 25.037586, "lng": 121.5472735, "cityID": "106"}, {"name": "\u6210\u529f\u5e97", "address": "\u53f0\u5317\u5e02\u5927\u5b89\u5340\u56db\u7dad\u8def198\u5df735\u865f", "lat": 25.0267956, "lng": 121.5471978, "cityID": "106"}, {"name": "\u5fe0\u5b5d\u5e97", "address": "\u53f0\u5317\u5e02\u5927\u5b89\u5340\u5fe0\u5b5d\u6771\u8def\u56db\u6bb571\u865fB1", "lat": 25.0420022, "lng": 121.5467576, "cityID": "106"}, {"name": "\u5927\u5b89\u6cf0\u9806", "address": "\u53f0\u5317\u5e02\u5927\u5b89\u5340\u548c\u5e73\u6771\u8def\u4e00\u6bb5145\u865f", "lat": 25.026639, "lng": 121.530695, "cityID": "106"}, {"name": "\u4ec1\u611b\u9752", "address": "\u53f0\u5317\u5e02\u5927\u5b89\u5340\u4ec1\u611b\u8def\u56db\u6bb5408\u865fB1", "lat": 25.0373508, "lng": 121.5568562, "cityID": "106"}, {"name": "\u901a\u5316\u967d", "address": "\u53f0\u5317\u5e02\u5927\u5b89\u5340\u4fe1\u7fa9\u8def\u56db\u6bb5296\u865fB1", "lat": 25.0329744, "lng": 121.5545027, "cityID": "106"}, {"name": "\u5e2b\u5927\u5e97", "address": "\u53f0\u5317\u5e02\u5927\u5b89\u5340\u5e2b\u5927\u8def129\u865f1\u6a13", "lat": 25.0216662, "lng": 121.5281829, "cityID": "106"}, {"name": "\u65b0\u751f\u5e97", "address": "\u53f0\u5317\u5e02\u5927\u5b89\u5340\u65b0\u751f\u5357\u8def\u4e09\u6bb52\u865fB1", "lat": 25.025746, "lng": 121.534531, "cityID": "106"}, {"name": "\u901a\u5316\u5e97", "address": "\u53f0\u5317\u5e02\u5927\u5b89\u5340\u5ef6\u5409\u8857250\u865fB1", "lat": 25.0348804, "lng": 121.5559791, "cityID": "106"}, {"name": "\u7f85\u65af\u798f", "address": "\u53f0\u5317\u5e02\u5927\u5b89\u5340\u7f85\u65af\u798f\u8def\u4e09\u6bb5285\u865fB1", "lat": 25.017856, "lng": 121.531479, "cityID": "106"}, {"name": "\u5927\u5b89\u5c45\u5b89", "address": "(10680)\u81fa\u5317\u5e02\u5927\u5b89\u5340\u5b89\u548c\u8def\uff12\u6bb588\u865f1\u6a13", "lat": 25.0288921, "lng": 121.5504101, "cityID": "106"}, {"name": "\u5927\u5b89\u5b89\u548c", "address": "(10680)\u81fa\u5317\u5e02\u5927\u5b89\u5340\u5b89\u548c\u8def\uff12\u6bb574\u5df73\u865f", "lat": 25.0300803, "lng": 121.5515801, "cityID": "106"}, {"name": "\u5927\u5b89\u6b63\u8072", "address": "(10694)\u81fa\u5317\u5e02\u5927\u5b89\u5340\u5ef6\u5409\u8857159-8\u865f", "lat": 25.038999, "lng": 121.5551733, "cityID": "106"}, {"name": "\u5927\u5b89", "address": "(10667)\u81fa\u5317\u5e02\u5927\u5b89\u5340\u5fa9\u8208\u5357\u8def\uff12\u6bb5237\u865f", "lat": 25.0258847, "lng": 121.5436722, "cityID": "106"}, {"name": "\u5927\u5b89\u6cf0\u9806", "address": "(10645)\u81fa\u5317\u5e02\u5927\u5b89\u5340\u6cf0\u9806\u885745\u865f1\u6a13", "lat": 25.0226946, "lng": 121.5312946, "cityID": "106"}, {"name": "\u5927\u5b89\u5ef6\u5409", "address": "(10696)\u81fa\u5317\u5e02\u5927\u5b89\u5340\u5e02\u6c11\u5927\u9053\uff14\u6bb5190\u865f", "lat": 25.0441119, "lng": 121.5539481, "cityID": "106"}, {"name": "\u5927\u5b89\u6c11\u69ae", "address": "(10656)\u81fa\u5317\u5e02\u5927\u5b89\u5340\u4ec1\u611b\u8def\uff13\u6bb524\u5df712\u865f1\u6a13", "lat": 25.0352913, "lng": 121.5358846, "cityID": "106"}, {"name": "\u5927\u5b89\u6c38\u5eb7", "address": "(10651)\u81fa\u5317\u5e02\u5927\u5b89\u5340\u6c38\u5eb7\u88577\u5df76\u865f1\u6a13\u3001B1", "lat": 25.0330519, "lng": 121.530531, "cityID": "106"}, {"name": "\u5317\u5e02\u5efa\u570b", "address": "(10659)\u81fa\u5317\u5e02\u5927\u5b89\u5340\u5efa\u570b\u5357\u8def\uff12\u6bb5123\u5df716\u865f", "lat": 25.0294396, "lng": 121.539114, "cityID": "106"}, {"name": "\u5317\u5e02\u548c\u5e73", "address": "(10643)\u81fa\u5317\u5e02\u5927\u5b89\u5340\u548c\u5e73\u6771\u8def\uff11\u6bb563\u865f", "lat": 25.0271644, "lng": 121.5245901, "cityID": "106"}, {"name": "\u5927\u5b89\u6a02\u5229", "address": "(10679)\u81fa\u5317\u5e02\u5927\u5b89\u5340\u6a02\u5229\u8def89\u865f1\u6a13", "lat": 25.0257228, "lng": 121.5521795, "cityID": "106"}, {"name": "\u5927\u5b89\u5e2b\u5927", "address": "(10646)\u81fa\u5317\u5e02\u5927\u5b89\u5340\u7f85\u65af\u798f\u8def\uff13\u6bb581\u865f", "lat": 25.022703, "lng": 121.526236, "cityID": "106"}, {"name": "\u6566\u5357", "address": "(10688)\u81fa\u5317\u5e02\u5927\u5b89\u5340\u5fe0\u5b5d\u6771\u8def\uff14\u6bb5126\u865fB1", "lat": 25.0410304, "lng": 121.5473338, "cityID": "106"}, {"name": "\u9ece\u5143", "address": "(10668)\u81fa\u5317\u5e02\u5927\u5b89\u5340\u8f9b\u4ea5\u8def\uff13\u6bb5223\u865f", "lat": 25.0160935, "lng": 121.550725, "cityID": "106"}, {"name": "\u5927\u5b89\u56db\u7dad", "address": "(10684)\u81fa\u5317\u5e02\u5927\u5b89\u5340\u56db\u7dad\u8def45\u865f", "lat": 25.0348356, "lng": 121.5482031, "cityID": "106"}, {"name": "\u5927\u5b89\u6210\u529f", "address": "(10669)\u81fa\u5317\u5e02\u5927\u5b89\u5340\u548c\u5e73\u6771\u8def\uff13\u6bb51\u5df751\u865f1\u6a13", "lat": 25.0262665, "lng": 121.546879, "cityID": "106"}, {"name": "\u5927\u5b89\u82b3\u548c", "address": "(10675)\u81fa\u5317\u5e02\u5927\u5b89\u5340\u6a02\u696d\u885787\u865f1\u6a13\u3001B1", "lat": 25.021664, "lng": 121.551299, "cityID": "106"}, {"name": "\u53f0\u5317\u6771\u9580", "address": "(10641)\u81fa\u5317\u5e02\u5927\u5b89\u5340\u91d1\u5c71\u5357\u8def\uff12\u6bb512\u865f", "lat": 25.0334813, "lng": 121.5269738, "cityID": "106"}]