[{"name": "\u5927\u5b89\u5206\u5c40", "cityID": "106", "address": "\u81fa\u5317\u5e02\u5927\u5b89\u5340\u4ec1\u611b\u8def3\u6bb52\u865f", "lat": "25.0378724", "lng": "121.533106"}, {"name": "\u7f85\u65af\u798f\u8def\u6d3e\u51fa\u6240", "cityID": "106", "address": "\u81fa\u5317\u5e02\u5927\u5b89\u5340\u7f85\u65af\u798f\u8def4\u6bb5113\u5df713\u865f", "lat": "25.0111861", "lng": "121.5388738"}, {"name": "\u81e5\u9f8d\u8857\u6d3e\u51fa\u6240", "cityID": "106", "address": "\u81fa\u5317\u5e02\u5927\u5b89\u5340\u81e5\u9f8d\u8857185\u865f", "lat": "25.0180005", "lng": "121.5518352"}, {"name": "\u6566\u5316\u5357\u8def\u6d3e\u51fa\u6240", "cityID": "106", "address": "\u81fa\u5317\u5e02\u5927\u5b89\u5340\u5fa9\u8208\u5357\u8def1\u6bb5219\u4e4b1\u865f", "lat": "25.0391486", "lng": "121.5441208"}, {"name": "\u5b89\u548c\u8def\u6d3e\u51fa\u6240", "cityID": "106", "address": "\u81fa\u5317\u5e02\u5927\u5b89\u5340\u4fe1\u7fa9\u8def4\u6bb5216\u865f", "lat": "25.0329951", "lng": "121.5521851"}, {"name": "\u745e\u5b89\u8857\u6d3e\u51fa\u6240", "cityID": "106", "address": "\u81fa\u5317\u5e02\u5927\u5b89\u5340\u745e\u5b89\u885723\u5df717\u865f", "lat": "25.0311932", "lng": "121.545068"}, {"name": "\u548c\u5e73\u6771\u8def\u6d3e\u51fa\u6240", "cityID": "106", "address": "\u81fa\u5317\u5e02\u5927\u5b89\u5340\u548c\u5e73\u6771\u8def1\u6bb5143\u865f", "lat": "25.0266151", "lng": "121.5305091"}, {"name": "\u65b0\u751f\u5357\u8def\u6d3e\u51fa\u6240", "cityID": "106", "address": "\u81fa\u5317\u5e02\u5927\u5b89\u5340\u4ec1\u611b\u8def3\u6bb518\u865f", "lat": "25.0378131", "lng": "121.5341199"}]