[{"name": "\u89c0\u97f3\u79aa\u9662", "address": "\u81fa\u5317\u5e02\u5927\u5b89\u5340\u65b0\u751f\u5357\u8def\uff11\u6bb5\u6c11\u70a4\u91cc137\u5df7", "cityID": 106, "lat": 25.0370038, "lng": 121.5329224, "type": "temple"}, {"name": "\u53f0\u5317\u5e02\u5927\u5b89\u5340\u798f\u5b89\u5bae", "address": "\u81fa\u5317\u5e02\u5927\u5b89\u5340\u81e5\u9f8d\u8857\u864e\u562f\u91cc61\u865f", "cityID": 106, "lat": 25.0220824, "lng": 121.5474811, "type": "temple"}, {"name": "\u6cd5\u96f2\u5bfa", "address": "\u81fa\u5317\u5e02\u5927\u5b89\u5340\u65b0\u751f\u5357\u8def\uff11\u6bb5165\u5df75", "cityID": 106, "lat": 25.0343047, "lng": 121.5335399, "type": "temple"}, {"name": "\u590f\u6559\u990a\u8056\u5802", "address": "\u81fa\u5317\u5e02\u5927\u5b89\u5340\u5efa\u570b\u5357\u8def\uff11\u6bb5\u6c11\u8f1d\u91cc44\u5df77\u865f", "cityID": 106, "lat": 25.039785, "lng": 121.5371505, "type": "temple"}, {"name": "\u8ca1\u5718\u6cd5\u4eba\u53f0\u5317\u5e02\u5713\u901a\u5b78\u82d1", "address": "\u81fa\u5317\u5e02\u5927\u5b89\u5340\u6f6e\u5dde\u8857\u9326\u83ef\u91cc58\u4e4b1\u865f", "cityID": 106, "lat": 25.0292094, "lng": 121.5236371, "type": "temple"}, {"name": "\u5927\u5b89\u8eca\u5c64\u666f\u798f\u5bae", "address": "\u81fa\u5317\u5e02\u5927\u5b89\u5340\u5ef6\u5409\u8857\u83ef\u8072\u91cc77\u865f", "cityID": 106, "lat": 25.0440356, "lng": 121.5540213, "type": "temple"}, {"name": "\u4e00\u5fc3\u5bfa", "address": "\u81fa\u5317\u5e02\u5927\u5b89\u5340\u5efa\u570b\u5357\u8def\uff12\u6bb5\u9f8d\u5716\u91cc11\u5df76\u865f", "cityID": 106, "lat": 25.0329428, "lng": 121.5380264, "type": "temple"}, {"name": "\u8ca1\u5718\u6cd5\u4eba\u53f0\u5317\u5e02\u767d\u96f2\u79aa\u5bfa", "address": "\u81fa\u5317\u5e02\u5927\u5b89\u5340\u7fa9\u5b89\u91cc\u5b89\u548c\u8def\uff12\u6bb520\u5df72\u865f", "cityID": 106, "lat": 25.0322614, "lng": 121.5521868, "type": "temple"}, {"name": "\u798f\u666f\u5bae", "address": "\u81fa\u5317\u5e02\u5927\u5b89\u5340\u5149\u5fa9\u5357\u8def\u901a\u5316\u91cc698\u865f", "cityID": 106, "lat": 25.0297093, "lng": 121.5571721, "type": "temple"}, {"name": "\u8ca1\u5718\u6cd5\u4eba\u53f0\u5317\u5e02\u5929\u5fb7\u5802\u7e3d\u5802", "address": "\u81fa\u5317\u5e02\u5927\u5b89\u5340\u548c\u5e73\u6771\u8def\uff13\u6bb5\u9ece\u548c\u91cc596\u865f", "cityID": 106, "lat": 25.0141091, "lng": 121.5623273, "type": "temple"}, {"name": "\u6cf0\u5b89\u5bae", "address": "\u81fa\u5317\u5e02\u5927\u5b89\u5340\u6f6e\u5dde\u8857\u9326\u83ef\u91cc98\u5df71", "cityID": 106, "lat": 25.029025, "lng": 121.5238067, "type": "temple"}, {"name": "\u8ca1\u5718\u6cd5\u4eba\u901a\u5316\u5802", "address": "\u81fa\u5317\u5e02\u5927\u5b89\u5340\u5fa9\u8208\u5357\u8def\uff12\u6bb5\u7fa4\u8ce2\u91cc179\u865f\u56db\u6a13", "cityID": 106, "lat": 25.0269358, "lng": 121.5437167, "type": "temple"}, {"name": "\u8ca1\u5718\u6cd5\u4eba\u53f0\u5317\u5e02\u798f\u4f51\u5bae", "address": "\u81fa\u5317\u5e02\u5927\u5b89\u5340\u5b89\u6771\u8857\u8aa0\u5b89\u91cc32\u865f", "cityID": 106, "lat": 25.0441115, "lng": 121.5424993, "type": "temple"}]